[
  {
    "id": "1",
    "title": "Premium Residential Plot in Bandra West",
    "price": 15000000,
    "areaSqft": 2500,
    "city": "Mumbai",
    "state": "Maharashtra",
    "type": "Residential",
    "latitude": 19.0596,
    "longitude": 72.8295,
    "images": ["https://images.unsplash.com/photo-1500382017468-9049fed747ef?w=800"]
  },
  {
    "id": "2",
    "title": "Commercial Land Near Cyber City",
    "price": 8500000,
    "areaSqft": 3000,
    "city": "Pune",
    "state": "Maharashtra",
    "type": "Commercial",
    "latitude": 18.5204,
    "longitude": 73.8567,
    "images": ["https://images.unsplash.com/photo-1486406146926-c627a92ad1ab?w=800"]
  },
  {
    "id": "3",
    "title": "Spacious Plot in Koramangala",
    "price": 12000000,
    "areaSqft": 2000,
    "city": "Bangalore",
    "state": "Karnataka",
    "type": "Residential",
    "latitude": 12.9352,
    "longitude": 77.6245,
    "images": ["https://images.unsplash.com/photo-1560518883-ce09059eeffa?w=800"]
  },
  {
    "id": "4",
    "title": "Agricultural Land - Nashik Highway",
    "price": 2500000,
    "areaSqft": 10000,
    "city": "Nashik",
    "state": "Maharashtra",
    "type": "Agricultural",
    "latitude": 19.9975,
    "longitude": 73.7898,
    "images": ["https://images.unsplash.com/photo-1625246333195-78d9c38ad449?w=800"]
  },
  {
    "id": "5",
    "title": "Prime Plot in Dwarka Sector 10",
    "price": 18000000,
    "areaSqft": 1800,
    "city": "Delhi",
    "state": "Delhi",
    "type": "Residential",
    "latitude": 28.5921,
    "longitude": 77.0460,
    "images": ["https://images.unsplash.com/photo-1580587771525-78b9dba3b914?w=800"]
  },
  {
    "id": "6",
    "title": "Industrial Plot - Chakan MIDC",
    "price": 6000000,
    "areaSqft": 5000,
    "city": "Pune",
    "state": "Maharashtra",
    "type": "Commercial",
    "latitude": 18.7606,
    "longitude": 73.8636,
    "images": ["https://images.unsplash.com/photo-1541888946425-d81bb19240f5?w=800"]
  },
  {
    "id": "7",
    "title": "Affordable Residential Plot",
    "price": 4500000,
    "areaSqft": 1500,
    "city": "Mumbai",
    "state": "Maharashtra",
    "type": "Residential",
    "latitude": 19.2183,
    "longitude": 72.9781,
    "images": ["https://images.unsplash.com/photo-1512917774080-9991f1c4c750?w=800"]
  },
  {
    "id": "8",
    "title": "Commercial Space - IT Park Adjacent",
    "price": 9500000,
    "areaSqft": 2800,
    "city": "Bangalore",
    "state": "Karnataka",
    "type": "Commercial",
    "latitude": 12.9716,
    "longitude": 77.5946,
    "images": ["https://images.unsplash.com/photo-1486718448742-163732cd1544?w=800"]
  },
  {
    "id": "9",
    "title": "Farm Land with Water Supply",
    "price": 3200000,
    "areaSqft": 12000,
    "city": "Pune",
    "state": "Maharashtra",
    "type": "Agricultural",
    "latitude": 18.6298,
    "longitude": 73.7997,
    "images": ["https://images.unsplash.com/photo-1574943320219-553eb213f72d?w=800"]
  },
  {
    "id": "10",
    "title": "Luxury Villa Plot - South Delhi",
    "price": 25000000,
    "areaSqft": 3500,
    "city": "Delhi",
    "state": "Delhi",
    "type": "Residential",
    "latitude": 28.5355,
    "longitude": 77.2230,
    "images": ["https://images.unsplash.com/photo-1600596542815-ffad4c1539a9?w=800"]
  },
  {
    "id": "11",
    "title": "Tech Park Plot - Whitefield",
    "price": 16000000,
    "areaSqft": 4000,
    "city": "Bangalore",
    "state": "Karnataka",
    "type": "Commercial",
    "latitude": 12.9698,
    "longitude": 77.7499,
    "images": ["https://images.unsplash.com/photo-1497366216548-37526070297c?w=800"]
  },
  {
    "id": "12",
    "title": "Budget Friendly Plot - Thane",
    "price": 3500000,
    "areaSqft": 1200,
    "city": "Mumbai",
    "state": "Maharashtra",
    "type": "Residential",
    "latitude": 19.2183,
    "longitude": 72.9781,
    "images": ["https://images.unsplash.com/photo-1605276374104-dee2a0ed3cd6?w=800"]
  },
  {
    "id": "13",
    "title": "Agricultural Land - Lonavala",
    "price": 4800000,
    "areaSqft": 15000,
    "city": "Pune",
    "state": "Maharashtra",
    "type": "Agricultural",
    "latitude": 18.7542,
    "longitude": 73.4066,
    "images": ["https://images.unsplash.com/photo-1500382017468-9049fed747ef?w=800"]
  },
  {
    "id": "14",
    "title": "Premium Commercial Plot - Connaught Place",
    "price": 35000000,
    "areaSqft": 2200,
    "city": "Delhi",
    "state": "Delhi",
    "type": "Commercial",
    "latitude": 28.6315,
    "longitude": 77.2167,
    "images": ["https://images.unsplash.com/photo-1486406146926-c627a92ad1ab?w=800"]
  },
  {
    "id": "15",
    "title": "Spacious Plot - Electronic City",
    "price": 7500000,
    "areaSqft": 2400,
    "city": "Bangalore",
    "state": "Karnataka",
    "type": "Residential",
    "latitude": 12.8456,
    "longitude": 77.6603,
    "images": ["https://images.unsplash.com/photo-1558036117-15d82a90b9b1?w=800"]
  }
]
